place_id,address,animal,contact,latitude,longitude,hiple,holiday,homepage,marker_image,name,one_line_intro,open_time,place_image,view_cnt,category_id,city_id
1,경기 이천시 부발읍 경충대로 1758 파발역,false ,0507-1343-8504,37.236091571,127.519419429,false ,,https://www.instagram.com/pabalyeok.inc/,,파발역 카페,"현대인을 위한 자동차 복합공간
셀프세차 라운지&루프탑",매일 10:30 ~ 20:30,https://ldb-phinf.pstatic.net/20210902_261/16305926963398FT3D_JPEG/XubITIYMHCA3PDmt2eXhx7cr.jpg?type=f804_408_60_sharpen,1.0,1,2
2,경기 이천시 부발읍 부발중앙로221번길 89 더반 올가닉,false ,0507-1355-1987,37.271784122,127.509348881,false ,,https://www.instagram.com/thebarnorganic/,,더반올가닉,"직접 재배하는 유기농 블루베리
농장에서 운영하는 카페","매일 10:30 ~ 20:00
(Break Time: 월~금 15:00~16:00,  
라스트오더: 19:00)",https://www.jeongdong.or.kr/static/portal/img/HKPU_04_04_pic1.jpg,2.0,1,2
3,경기 이천시 경충대로2481번길 94,false ,,37.266861182,127.454677634,false ,"매주 월요일 
정기휴무",https://www.instagram.com/cafe.jinri/,,카페 진리,수제 디저트와 논밭뷰로 힐링하는 카페,화~일 12:00 ~ 21:00,https://ldb-phinf.pstatic.net/20210902_261/16305926963398FT3D_JPEG/XubITIYMHCA3PDmt2eXhx7cr.jpg?type=f804_408_60_sharpen,3.0,1,2
4,속초시 번영로 105번길 13,false ,0507-1310-7524,38.209519976,128.587063711,false ,"매주 화요일
정기휴무",https://www.instagram.com/seorak_gelato,,설악젤라또," 국내 1호 친환경 인증 범산목장 유기농우유로
강원도 원재료로 만든 '세.젤.쫀' 젤라또","월, 수~일
11:00 ~ 19:00",https://www.jeongdong.or.kr/static/portal/img/HKPU_04_04_pic1.jpg,4.0,1,6
5,인천 강화군 강화읍 향나무길5번길 12 조양방직,false ,0507-1307-2192,37.746957427,126.480422964,false ,연중무휴,http://naver.me/xIh2dUUI,,조양방직,"조양방직 폐공장을 리모델링하여
만든 강화도 감성 카페 ","평일 11:00~20:00
주말 11:00~21:00",https://ldb-phinf.pstatic.net/20210902_261/16305926963398FT3D_JPEG/XubITIYMHCA3PDmt2eXhx7cr.jpg?type=f804_408_60_sharpen,5.0,1,9
6,제주특별자치도 제주시 첨단로 330 A동 2층 6호,false ,070-5224-1828,33.442358049,126.571473761,false ,,http://haenyeokitchen.com/BLOG,,해녀의부엌,해녀의 삶을 담은 연극 공연과 직접 잡아온 해산물을 식사로 제공,"(매주 금,토,일 12:00 / 17:30 - 2타임 운영)",https://www.jeongdong.or.kr/static/portal/img/HKPU_04_04_pic1.jpg,6.0,2,1
7,"대전광역시 중구 산서로 50번길 19, 1층 102호",false , 010-6340-0360 ,36.294954409,127.385805846,false ,"매주 일요일
월요일 휴무",https://kongdeshu.modoo.at/,,콩드슈,"어머니를 이어, 두자매가 대전의 지역음식 콩부각 판매","매주 화~토 
10:30 ~ 18:00",https://ldb-phinf.pstatic.net/20210902_261/16305926963398FT3D_JPEG/XubITIYMHCA3PDmt2eXhx7cr.jpg?type=f804_408_60_sharpen,7.0,2,5
8, 제주시 한림읍 금능농공길 62-11 3층,false ,064-798-9872 ,33.358474185,126.241212521,false ,,https://jejubeer.co.kr/brewery-program,,제주맥주,제주 지역자원을 활용한 크래프트 맥주와 양조장,별도 문의,https://www.jeongdong.or.kr/static/portal/img/HKPU_04_04_pic1.jpg,8.0,3,1
9,강원도 양양군 현북면 하조대해안길 119,false ,1522-2729,38.027819251,128.717263568,false ,,http://www.surfyy.com/,,주식회사라온서피리조트,"서핑 전용 해변과 스위밍존, 빈백존, 해먹존, 힐링존 등 온전한 휴식을 즐길 수 있는 공간",별도 문의,https://ldb-phinf.pstatic.net/20210902_261/16305926963398FT3D_JPEG/XubITIYMHCA3PDmt2eXhx7cr.jpg?type=f804_408_60_sharpen,9.0,3,6
10,경남 함안군 가야읍 함안대로 598,false ,055-583-6100,35.279500039,128.403519540,false ,,http://hfarmerscoop.com/bbs/board.php?bo_table=gallery,,별별농부,지역 청년 농부를 위한 공동 체험장,별도 문의,https://www.jeongdong.or.kr/static/portal/img/HKPU_04_04_pic1.jpg,10.0,3,12
11,경남 통영시 도남로 195 통영리스타트플랫폼 4층 02,false ,055-646-2025,34.829384827,128.425877466,false ,,https://erang87.modoo.at/?link=dwo6jvjx,,통영이랑,토박이 청년들과 함께하는 비밀스러운 통영이야기,별도 문의,https://file.mk.co.kr/meet/neds/2020/09/image_readtop_2020_914923_15991920034343519.jpg,11.0,3,12
12,강원도 속초시 수복로259번길 11 Soho259,false ,0507-1333-0259,38.210598410,128.591026721,false ,,http://soho259.co.kr/program,,소호259,"나'만의 라이프스타일을
자연스럽게 만들어가는 공간, Soho259",별도 문의,https://file.mk.co.kr/meet/neds/2020/09/image_readtop_2020_914923_15991920034343519.jpg,12.0,3,6
13,강원도 고성군 죽왕면 삼포리 239-27 1층,false ,033-636-0328,0,0,false ,,https://romantrip.co.kr/product-category/play/,,낭만여행 고성,고성에서 당신의 취향을 여행하다. ‘로컬 취향 여행(Local Taste Trip)’,별도 문의,"https://media.triple.guide/triple-cms/c_limit,f_auto,h_1024,w_1024/7f40bcc6-7d31-4e77-ac4b-1a5dd7932d7c.jpeg",13.0,3,6
14,부산 해운대구 해운대해변로 84,false ,1599-1789,35.159798599,129.141957017,false ,,https://www.yachttale.com/,,요트탈래,"수영강 최초의 스마트 관광 유람선, 해운대리버크루즈",매일 09:00 ~ 22:00,https://file.mk.co.kr/meet/neds/2020/09/image_readtop_2020_914923_15991920034343519.jpg,14.0,4,4
15,"제주특별자치도 제주시 중앙로 217, 4층(이도이동, 제주벤처마루)",false ,064-799-9333,33.500326240,126.530023707,false ,,https://www.yourfarm.kr/,,당신의 과수원,과수원 연결을 통한 감성 멤버십 서비스,,https://file.mk.co.kr/meet/neds/2020/09/image_readtop_2020_914923_15991920034343519.jpg,16.0,4,1
16,제주 제주시 북성로 43 1층,false ,0507-1308-8251,33.515544470,126.520140106,false ,매주 수요일 휴무,https://www.instagram.com/jejuhorselab/,,말고기연구소,"제주공항맛집, 제주바다 보며 가볍게 즐기는 말고기","10:00 ~ 17:00, 전화주문 불가",,,2,1
17,제주 서귀포시 성산읍 중산간동로 3147-7,false ,070-7722-1886,33.450411894,126.871882835,false ,연중무휴,https://www.instagram.com/honest_milk/,,어니스트밀크,송아지 우유주기 체험 가능한 목장 카페,10:00 ~ 18:00,,,1,1
18,"제주 제주시 중앙로 217 4층, 사무실",false ,0507-1315-3885,33.500326240,126.530023707,false ,주말 휴무,https://blog.naver.com/dalhajeju,,달하제주,돌하르방을 닮은 젤리,09:00 ~ 18:00 (오프라인 매장 준비중),,,2,1
19,충남 예산군 응봉면 입침중촌길 21,false ,041-335-0416,36.653098796,126.804096058,false ,연중무휴,https://www.instagram.com/eungbong_bakerycafe_official/,,응봉상회,예당호 주변 최대 규모의 창고형 베이커리 카페,연중무휴 10:30~22:00 (마지막 음료주문 21:30),,,1,8
20,경기 가평군 가평읍 석봉로 200,false ,0507-1401-3749,37.832806026,127.510039212,false ,연중무휴,https://www.instagram.com/le_bon_pain_0607/,,르봉뺑,연유쌀바게트와 르봉뺑라떼(잣라떼)가 맛있는 제빵소,연중무휴 08:00~22:00,,,1,2
21,충남 예산군 예산읍 예산로 220-1,false ,041-331-2812,36.679867114,126.849124387,false ,"매월 2,4번째 화요일",http://naver.me/FxL2Erog,,동흥대반점,80년 역사의 중화요리 맛집,11:00 ~ 20:30,,,2,8
22,충남 예산군 대흥면 예당긍모로 358-27,false ,041-334-9988,36.636018571,126.815813294,false ,매주 수요일 정기휴무,http://naver.me/GXERFVSa,,동가룰가든,"풍경이 아름다운 어죽, 민물새우튀김 맛집",09:00 ~ 20:00,,,2,8
23,충남 예산군 예산읍 임성로23번길 8,false ,041-335-6230,36.680555119,126.848929232,false ,연중무휴,http://naver.me/xfaRf9sc,,삼우갈비,38년 전통의 한우 양념갈비 맛집,매일 12:00 ~ 20:30 (브레이크 타임 14:00 ~18:00),,,2,8
24,경기 가평군 설악면 신천중앙로 101,false ,031-584-7444,37.677052153,127.492332997,false ,연중무휴,http://naver.me/Gul0N9kq,,설악한우마을,가평 유명산 자락에 위치한 직접 기른 청정한우 맛집,"매일 11:00 ~ 22:00 (브레이크 타임 15:00 ~17:00, 라스트오더: 21:00)",,,2,2
25,경기 가평군 가평읍 중촌로 15-47,false ,0507-1414-6465,37.833183989,127.507468474,false ,매주 월요일 정기휴무,http://naver.me/xJNuSI9i,,구성각,면러버들의 숨은 칼국수 맛집,화~일 10:30 ~ 15:00,,,2,2
26,경기 가평군 조종면 운악청계로 75 장어독립,false ,031-584-5568,37.828396521,127.347886203,false ,매주 월요일 정기휴무,http://naver.me/xJNa7EQo,,장어독립,"민물한방장어구이, 장어파김치전골 맛집",화~일 11:00 ~ 21:00 (브레이크 타임 15:00 ~ 17:00),,,2,2
27,인천 강화군 강화읍 강화대로409번길 4-3,false ,0507-1387-2025,37.746228186,126.485431835,false ,매주 수요일 정기휴무,http://naver.me/Fds73dfT,,신아리랑,"강화도 토속음식을 맛볼 수 있는 시골맛집
(대표메뉴: 젓국갈비, 돌솥굴밥)","평일 10:00 ~ 20:30
주말 10:00 ~ 18:00",,,2,9
28,인천 강화군 강화읍 북문길 8 2층고려족발,false ,032-932-8278,37.747758670,126.484691106,false ,매주 월요일 정기휴무,http://naver.me/GDc5oEbY,,고려족발,"강화도 대표 숯불구이바베큐 족발,보쌈 맛집",화~일 11:00 ~ 23:00,,,2,9
29,인천 강화군 길상면 온수길 17-2 반선식당,false ,032-937-1924,37.638478371,126.492103476,false ,"매달 1,3번째 월요일 정기휴무",http://naver.me/xbwnrlhm,,학생분식,3대가 운영중인 황해도식 만둣국 맛집,매일 11:00 ~ 17:00 (재료소진시 조기마감),,,2,9
30,인천 강화군 길상면 온수길 38,false ,032-937-3003,37.639433982,126.490545808,false ,매주 일요일 정기휴무,http://naver.me/Ft8lahXb,,온돌집,칼칼하고 담백한 병어찜 맛집,11:30 ~ 18:00 (전화예약제로 운영),,,2,9
31,충청남도 태안군 남면 우운길 56-19,false ,041-675-3636,36.687330632,126.282426137,false ,연중무휴,http://kamille.co.kr/page/sub01_info.html?menu=1&sub=3 ,,팜카밀레허브농원,태안시에 위치한 1만 2천 평의 국내 최대 규모 관광 허브농원,오전 9시~오후 6시 (동절기는 5시까지운영),http://www.welchon.com/upload/travelsub/20210701095955281.jpeg,,4,8
32,강원도 평창군 평창읍 여만길 189-7,false ,033-332-2625,37.381659313,128.411241393,false ,,http://naver.me/xuI1qiWR,,장암산 활공장,이착륙하기 좋고 평창강뷰를 자랑하는 패러글라이딩 성지,별도 문의,http://www.welchon.com/upload/travelsub/20210802103556780.jpg,,3,6
33,강원도 정선군 화암면 화암동굴길 12-2,false ,033-560-3410,37.349986134,128.789145447,false ,,http://naver.me/xdIkKsd9,,화암동굴,"천연기념물 제557호, 과거 금광으로 화려함을 만끽할 수 있는 공간",매일 09:00 - 18:00 도보입장마감 16:30 / 모노레일 탑승마감 17:00,http://www.welchon.com/upload/travelsub/20210802100705654.jpg,,4,6
34,경기도 가평군 상면 수목원로 432,false ,1544-6703,37.743958019,127.352538453,false ,연중무휴,https://www.morningcalm.co.kr/html/main.php,,아침고요수목원,"약 5,000여종의 식물을 관람할 수 있는 원예수목원",매일 08:30 ~ 19:00 입장마감 18:00,http://www.welchon.com/upload/travelsub/20210630180322070.jpg,,4,2
35,경기도 가평군 북면 화악리 산 228-1,false ,,0,0,false ,,http://naver.me/GkKJtp9e,,화악터널쌈지공원,"도시의 불빛과 소음이 없는, 별과 오로라뷰",,http://www.welchon.com/upload/travelsub/20210630180213182.jpg,,4,2
36,충청남도 태안군 고남면 장삼포로 535-57,false ,,36.433529402,126.355937718,false ,,http://naver.me/x7vBfYC1,,운여해변,"소나무 숲에 둘러싸인 조용한 해수욕장, 아름다운 뷰와 캠핑장까지",,http://www.welchon.com/upload/travelsub/20210630181654229.jpg,,4,8
37,경기도 가평군 가평읍 용추로 238,false ,031-582-3115,37.848109330,127.487754292,false ,매주 일요일 정기휴무,http://www.9majigi.kr/,,아홉마지기마을,용추계곡과 연안산의 조화로운 뷰,월~토 09:00 ~ 18:00 (토요일 방문시 사전 연락),http://www.welchon.com/upload/travelsub/20210630175708756.JPG,,4,2
38,경상북도 봉화군 춘양면 춘양로 1501,false ,054-679-1000,37.009857576,128.828182456,false ,매주 월요일 정기휴무,http://naver.me/xaPgoA7y,,국립백두대간수목원,산책하기 좋은 호랑이 숲과 드넓은 산속 풍경,화~일 09:00-19:00 (3~10월 18:00까지),http://www.welchon.com/upload/travelsub/20210930112315909.jfif,,4,7
39,경상북도 경주시 안강읍 옥산서원길 216-27,false ,054-672-1446,36.011658492,129.163336043,false ,,http://naver.me/GGhU3m5G,,청량사,소나무와 각종 활엽수가 울창한 경관이 수려한 곳,연중무휴 9:00-18:00 (10월-3월은 17:00),http://www.welchon.com/upload/travelsub/20210930112215860.jpg,,4,7
40,충청남도 청양군 정산면 천장호길 24,false ,,36.414538049,126.921784126,false ,,http://naver.me/GdJiHiKv,,천장호 출렁다리,흔들흔들 스릴만점 청양의 명물 ,매일 09:00 ~ 18:00,http://www.welchon.com/upload/travelsub/20210930103039017.jpg,,3,8
41,강원도 강릉시 강동면 율곡로 1441,false ,033-644-9411,37.707014852,129.009871058,false ,,https://museumhaslla.com/,,하슬라아트월드,동해 바다가 보이는 복합예술공간,매일 09:00 ~ 18:00,http://www.welchon.com/upload/travelsub/20210630183818843.jpg,,3,6
42,강원도 강릉시 왕산면 안반데기1길 203,false ,0507-1429-4744,37.608740913,128.740025512,false ,,http://naver.me/xzc6t8EC,,안반데기,"해발 1,100m 고원의 시원함과 함께 별 보기",매일 10:00 ~ 17:00,http://www.welchon.com/upload/travelsub/20210630183609316.jpg,,4,6
43,충청남도 홍성군 서부면 남당항로 689,false ,070-7763-8450,36.576874539,126.464219309,false ,,http://naver.me/FlJcq0Kz,,속동갯벌마을,"숨어있는 일몰 맛집, 바지락체험공간 ",평일 09:00 ~ 18:00,http://www.welchon.com/upload/travelsub/20210630180536739.jpg,,4,8
44,경상북도 예천군 효자면 도효자로 2142,false ,054-650-8321,36.799410360,128.376113579,false ,매주 월요일 정기휴무,http://naver.me/5aVPtrDi,,예천 목재문화체험장,"산책로, 숲속 힐링, 목재문화 체험 복합공간",화~일 09:00 - 18:00 ,http://www.welchon.com/upload/travelsub/20210531141457079.png,,3,7
45,경상남도 하동군 화개면 정금리 577,false ,010-8526-0070,0,0,false ,,http://naver.me/Fn2MzvkL,,도심다원,"녹차밭뷰 사진명소, 녹차마시며 밭뷰 감상",평일 09:00 ~ 18:00,http://www.welchon.com/upload/travelsub/20210531140955101.png,,1,12
46,경상남도 사천시 곤명면 경서대로 3552,false ,055-854-5800,35.138946505,127.988176999,false ,,http://naver.me/5IFSjy3J,,다래 와인갤러리,"와인을 즐기고, 아티스트들의 작품도 감상하는 이색갤러리",매일 10:00 ~ 19:00 (라스트오더 18:30),http://www.welchon.com/upload/travelsub/20210531135657597.png,,3,12
47,전라남도 순천시 월등면 계월길 138,false ,061-754-2337,35.062223091,127.404554864,false ,,http://naver.me/F36o8diu,,순천 향매실마을,매실과 관련된 다양한 체험활동,별도 문의,http://www.welchon.com/upload/travelsub/20191008150841878.png,,3,14
48,충청남도 당진시 신평면 신평로 813,false ,041-362-6080,36.883345034,126.774884933,false ,,http://naver.me/FJH6yvSH,,신평양조장,"3대째 전통술을 빚고 있는 양조장, 시음 및 체험프로그램",매일 09:00 ~ 18:00 (브레이크타임 12:00~13:00),http://www.welchon.com/upload/travelsub/20191008143356341.JPG,,3,8
49,충청남도 아산시 도고면 아산만로 199-7,false ,041-547-7882,36.761794265,126.867067587,false ,,http://naver.me/GpJe6CWZ,,아산 레일바이크,"논밭뷰를 감상하며 타는 레일바이크, 짚라인","매일 09:00 ~ 18:00 (3~10월)
매일 10:00 ~ 17:00 (11월~2월)",http://www.welchon.com/upload/travelsub/20191008143243285.JPG,,3,8
50,경상남도 하동군 악양면 섬진강대로 3358-110,false ,055-884-7410,35.149241285,127.680458932,false ,,http://naver.me/xFprb1N0,,스타웨이,섬진강 스카위워크 들판과 강이 어우러진 뷰,매일 09:30 ~ 20:30,http://www.welchon.com/upload/travelsub/20210531140400141.jpg,,4,12
51,제주특별자치도 제주시 조천읍 번영로 1278-169,false ,064-802-8020,33.455322371,126.668072747,false ,,http://naver.me/58HFhD0L,,에코랜드,기차타고 원시림을 체험하는 이색 테마파크,매일 09:00 ~ 18:00 (마지막 기차: 16:50),http://www.welchon.com/upload/travelsub/20190829131545916.jpg,,3,1
52,전라북도 김제시 금산면 원평1길 190-14,false ,0507-1421-2325,35.699373306,126.996527170,false ,,http://naver.me/FmglgD6u,,삶의 향기,김제시 특산물로 만든 향토건강음식 맛집,매일 11:00 ~ 19:00 (하루 전 예약 필수),http://www.welchon.com/upload/travelsub/20190829121604534.jpg,,2,13
53,충북 보은군 속리산면 사내7길 4,false ,0507-1367-3924,36.532087462,127.822657328,false ,,http://naver.me/GWFvzDgX,,영남식당,"속리산 능이전골, 산채비빔밥 향토음식전문점",매일 08:00 ~ 20:00,,,2,11
54,경기도 포천시 신북면 청신로 1215,false ,0507-1329-5362,37.955120707,127.150799252,false ,,http://naver.me/xTeSTk68,,청산별미,"직접 재배한 버섯 요리 전문점, 농촌진흥청 지정 맛집",매일 10:00 ~ 20:00,http://www.welchon.com/upload/travelsub/20181219180930694.jpg,,2,2
55,전라남도 구례군 용방면 용산로 107-73,false ,070-5109-2080,35.273901126,127.413059181,false ,매주 월요일 정기 휴무,http://naver.me/x8lEKnL7,,구례자연드림파크,"공방견학, 요리체험, 기념품만들기 ",화~일 09:00 ~ 24:00,http://www.welchon.com/upload/travelsub/20180919171604159.jpg,,3,14
56,전라남도 고흥군 포두면 우주로 1296,false ,061-830-5690,34.549942633,127.375525259,false ,,http://naver.me/G5rYIyhR,,마복산목재문화체험장,나무와 숲과 함께하는 힐링체험공간,별도 문의,http://www.welchon.com/upload/travelsub/20180919165604102.jpg,,3,14
57,전라북도 고창군 해리면 월봉성산길 88,false ,070-4175-0914,35.470078321,126.483631413,false ,매주 화~목 정기휴무,http://naver.me/F6mcQof8,,책마을해리,"나만의 책 만들기, 건강 간식만들기",금~월 10:00 ~ 18:00,http://www.welchon.com/upload/travelsub/20180817102848893.jpg,,3,13
58,전라남도 신안군 임자면 진리길 44,false ,061-261-0153,35.087098861,126.112729623,false ,,http://naver.me/xmimpLWB,,임자만났네마을,"드론체험, 카약체험, 갯벌체험 등 다양한 체험공간",별도 문의,http://www.welchon.com/upload/travelsub/20180726154012411.jpg,,3,14
59,경상남도 합천군 가야면 가야산로 1065,false ,055-932-5991,35.759202610,128.139103026,false ,"매월 2,4번째 수요일 정기휴무",http://naver.me/5zJlLz3F,,금관식당,숨은 떡갈비와 막국수 로컬 맛집,매일 09:30 ~ 21:30,http://www.welchon.com/upload/travelsub/20180621145809294.jpg,,2,12
60,전라남도 영암군 학산면 독천로 162-1,false ,061-472-4222,34.724762068,126.567040538,false ,매월 4번째 월요일 정기 휴무,http://naver.me/xxxA9QSu,,독천식당,"35년 전통의 낙지연포탕, 갈낙탕 원조 맛집",매일 11:00 ~ 20:00 (브레이크타임 16:00~17:00),http://www.welchon.com/upload/travelsub/20180621143213909.jpg,,2,14
61,전라북도 남원시 요천로 1467 (쌍교동),false ,063-632-0535,35.403318274,127.381996682,false ,매주 화요일 정기휴무,http://naver.me/xAtVftkf,,할매추어탕,"3대 원조 할매추어탕, 중기부 선정 백년가게",매일 08:00 ~ 19:00 (브레이크타임 15:00~16:00),http://www.welchon.com/upload/travelsub/20180320160453531.jpg,,2,13
62,경상북도 문경시 동로면 노은1길 49-15,false ,054-552-8252,36.772279166,128.313733546,false ,연중무휴,http://naver.me/FZJ2xoQh,,문경주조,"문경 오미자 막걸리, 전통주 ",24시간 운영,http://www.welchon.com/upload/travelsub/20180222162559106.jpg,,2,7
63,경상북도 예천군 예천읍 양궁장길 38,false ,054-650-6411,36.634632480,128.468374737,false ,,http://www.runarchery.kr/basic,,예천진호국제양궁장,"아이들과 함께하기 좋은 양궁, 국궁 활쏘기 체험",별도 문의,http://www.welchon.com/upload/travelsub/20180219170844305.jpg,,3,7
64,전라북도 무주군 설천면 무설로 1324,false ,063-324-1155,36.010085088,127.758149761,false ,,https://tour.muju.go.kr/bandiland/index.do,,무주반디랜드,"희귀 곤충박물관, 생태온실, 천문과학관까지",하절기(3~10월) 09:00~18:00 동절기(11~2월) 09:00~17:00,http://www.welchon.com/upload/travelsub/20180129150214304.jpg,,4,13
65,충청북도 단양군 대강면 선암계곡로 148,false ,043-422-1576,36.828463123,128.311530960,false ,,http://naver.me/GZAu3MB7,,방곡도예촌,단양 나만의 그릇 만들기 도자기체험,별도 문의,http://www.welchon.com/upload/travelsub/20180122134732265.JPG,,3,11
66,경기도 이천시 경충대로2697번길 263 (관고동),false ,031-631-6501,37.276924384,127.423707089,false ,매주 월요일 정기휴무,http://naver.me/GZA6aUiM,,이천세라피아,"토야랜드, 흙놀이장, 도자기 박물관 등",09:00~18:00 ,http://www.welchon.com/upload/travelsub/20180122133305308.jpg,,3,2
67,경기도 연천군 연천읍 현문로 339-10,false ,031-834-8383,38.063535078,127.101466805,false ,,http://naver.me/F8KnFlfu,,조선왕가,"풍등날리기, 한방비누만들기 체험공간",별도 문의,http://www.welchon.com/upload/travelsub/20171219095740714.jpg,,3,2
68,경기도 연천군 청산면 평화로 209,false ,031-835-0381,37.992965169,127.069123596,false ,,http://naver.me/GvkGEXHT,,초성김치마을,"김치체험 및 판매, 교육, 전시의 복합문화공간",24시간 운영,http://www.welchon.com/upload/travelsub/20171219095547555.jpg,,3,2
69,경기도 포천시 신북면 탑신로 860,false ,031-532-1881,37.926557158,127.142200285,false ,매주 월~화 정기휴무,http://naver.me/5SWa93HI,,어메이징파크,자연속에서 경험하는 체험 과학 교육공간,수~일 10:00 ~ 18:00 (라스트오더 16:30),http://www.welchon.com/upload/travelsub/20171219094911865.jpg,,3,2
70,경기도 김포시 고촌읍 아라육로270번길 73,false ,010-7110-6681 ,37.599178623,126.789120422,false ,,http://sailingseoul.com/reservation,,세일링서울,"한강의 재발견, 스토리가 있는 한강 세일링 여행",별도 문의,,,3,2
71,경기도 연천군 신서면 도대로7번길 70,false ,010-3929-9909 ,38.184159047,127.105897202,false ,,https://5go.modoo.at/?link=ci6j6seq,,오고농원,"오미자청, 비누만들기 체험이 가능한 농원",별도 문의,,,3,2
72, 경기도 안성시 공도읍 진건중길 256-201 ,false ,050-7737-4812,36.974397464,127.124653734,false ,,https://www.commecat.com/,,고로롱,안전한 고양이 먹거리를 제공하는 프리미엄 캣닢 보약,,,,2,2
73,충남 공주시 제민2길 3-2,false ,0507-1339-4904,36.451697711,127.121199811,false ,매주 월요일 정기휴무,https://www.instagram.com/mangjoonghan_/,,망중한,밤 아이스크림 진짜 맛있는 한옥 카페,매일 12:00 ~ 21:00,,,1,8
74,전북 김제시 만경읍 대동1길 49-5,false ,0507-1370-7744,35.853030112,126.851228783,false ,매주 화~수 정기휴무,http://naver.me/xH2DQpVG,,미즈노씨네 트리하우스,애니 속에 온듯한 김제 이색카페,"평일 12:00 ~ 18:00
주말 11:00 ~ 18:00",,,1,13
75,부산 영도구 봉래나루로 178 무명일기,false ,0507-1320-8069,35.096448908,129.043489480,false ,연중무휴,https://www.instagram.com/cotton.diary/,,무명일기,1950년대 낡은 창고를 재창조한 부산 영도의 카페,매일 12:00 ~ 22:00,,,1,4
76,전북 부안군 진서면 청자로 1076,false ,1899-9504,35.594707641,126.618265162,false ,연중무휴,https://www.instagram.com/seulji_bakery1999/,,슬지제빵소,뷰도 좋고 맛도 좋은 크림치즈 찐빵 맛집 카페,매일 10:00 ~ 19:00 ,,,1,13
77,강원 속초시 중앙로46번길 45 칠성조선소,false ,033-633-2309,38.198551924,128.583475954,false ,연중무휴,https://www.instagram.com/chilsungboatyard/,,칠성조선소,조선소를 재탄생시킨 카페에서 오션뷰보며 커피 한잔  ,매일 11:00 ~ 20:00 (라스트오더 19:30) ,,,1,6
78,경기 수원시 팔달구 창룡대로7번길 16,false ,0507-1355-6698,37.282641829,127.017751241,false ,,https://www.instagram.com/cafe_choan/,,카페 초안,버드나무의 아름다움을 담고 있는 서울 근교 카페,"평일 12:00 ~ 20:00 (라스트오더 19:30)
주말 12:00 ~ 21:00 (라스트오더 20:30)",,,1,2
79,충남 예산군 예산읍 대학로54번길 19,false ,0507-1445-7733,36.673282568,126.858828063,false ,매주 금요일 정기휴무,https://www.instagram.com/coffeebreeze_official/,,커피브리즈,조용하고 애견동반이 가능한 카페,매일 11:00 ~ 18:00,,,1,8
80,제주 서귀포시 안덕면 산방로 380,false ,064-792-3803,33.231662612,126.296467956,false ,연중무휴,https://www.instagram.com/sagyelife/,,사계생활,"로컬 여행자를 위한 콘텐츠 저장소, 제주의 특색을 담은 카페",매일 10:30 ~ 18:00 (라스트오더 17:30),,,1,1
81,충북 충주시 노은면 솔고개로 737,false ,0507-1314-3898,37.031039157,127.774209888,false ,연중무휴,https://www.instagram.com/viche_coffee/,,비채커피,마당이 넓어 아이들이 뛰어놀기 좋은 커피숍,매일 10:00 ~ 21:00 (라스트오더 20:30),,,1,11
82,강원 강릉시 교동 810-31,false ,0507-1359-1990,0,0,false ,매주 화요일 정기휴무,https://www.instagram.com/cafe_easily/,,카페 이진리,강릉 교동의 주택을 개조한 후추 커피와 에그타르트가 맛있는 카페,"월요일 12:00 ~ 18:00
화~금 12:00 ~ 21:00
주말 11:00 ~ 21:00",,,1,6
83,강원 양양군 현남면 인구길 28-23,false ,1577-8647,37.968638637,128.761856224,false ,연중무휴,https://www.instagram.com/pleasewait_yy/,,플리즈웨잇,"야자수가 있는 한낮엔 카페, 한밤엔 펍으로 변하는 힙플","월~목 11:00 ~ 23:00
금~일 11:00 ~ 24:00",,,1,6
84,경북 포항시 남구 구룡포읍 구룡포길 133-1,false ,054-281-7773,35.991395397,129.559664320,false ,연중무휴,http://naver.me/FqSHGCGc,,까멜리아 인 구룡포,잠시 해외여행이라도 온 듯한 포항 구룡포 카페,매일 10:00 ~ 21:00,,,1,7
85,전남 목포시 북항로 119,false ,0507-1343-0406,34.801103987,126.371612671,false ,매주 월요일 정기휴무,https://www.instagram.com/yudal_milk/,,유달유업,목포 죽교동 찐 레트로감성 카페,"매일 12:00 ~ 22:00
일요일 12:00 ~ 21:00",,,1,14
86,전북 고창군 부안면 복분자로 307 카페 뮬리,false ,063-564-7777,0,0,false ,,http://naver.me/Fk54eNlO,,카페뮬리,핑크뮬리뷰와 함께하는 우유 카스텔라 맛집,,,,1,13
87,전북 군산시 비응남로 3 2층,false ,010-2389-9160,35.935599251,126.525593218,false ,연중무휴,http://naver.me/FcT7s3Jm,,커피홀릭,군산 비응항 노을이 멋진 오션뷰 카페,매일 10:30 ~ 21:00,,,1,13
88,전북 정읍시 태인면 정읍북로 1327,false ,0507-1399-5802,35.655377897,126.945538448,false ,"매주 2,4번째 월요일 정기휴무",https://www.instagram.com/Cafe._.verde/,,베르데카페,정원이 예쁜 힐링카페,매일 11:00 ~ 21:00,,,1,13
89,전남 완도군 신지면 명사십리길 71-28,false ,061-552-5000,34.327333678,126.805517279,false ,연중무휴,http://naver.me/5Vexv5Pf,,욜로카페,"완도 명사십리, 럭셔리 힙플에서 누리는 힐링",매일 10:00 ~ 21:00,,,1,14
90,경남 남해군 서면 남서대로1517번길 44,false ,0507-1310-9332,34.801241178,127.836525324,false ,매주 수요일 정기휴무,http://naver.me/5jAmvGqj,,헐스밴드,"페루산 유기농 커피 전문점, 자연뷰 카페",매일 11:00 ~ 18:00,,,1,12
91,부산 영도구 절영로 234,false ,0507-1405-5055,35.077295610,129.046507939,false ,연중무휴,https://www.instagram.com/aether_cafe/,,에테르,"부산 오션뷰 맛집 카페, 테라스와 루프탑까지 ",매일 11:00 ~ 22:00 (L.O.21:00),,,1,4
92,충남 아산시 둔포면 둔포중앙로 233,false ,0507-1397-9089,36.923861378,127.043295680,false ,연중무휴,https://www.instagram.com/cafe__deunhae/?utm_medium=copy_link,,카페든해,"자연을 품은 공간, 모스커피 맛집",매일 11:00 ~ 20:30 (last order 20:00),,,1,8
93,인천 중구 공항서로 419,false ,032-751-8242,37.458572748,126.411785349,false ,연중무휴,https://www.instagram.com/cafe_ryook/,,카페 륙,인천공항이 바로 보이는 시원한 뷰와 맛있는 빵,"평일 10:00 ~ 21:00
주말 10:00 ~ 21:00",,,1,9
94,제주 제주시 한경면 일주서로 4459-4 카페원웨이,false ,0507-1370-0225,33.362398573,126.193073476,false ,매주 화요일 정기휴무,https://www.instagram.com/cafewantway/,,카페원웨이,제주 한경면 판포 야간까지 하는 카페,매일 11:00 ~ 22:00,,,1,1
95,제주 서귀포시 보목포로 145,false ,064-732-1555,33.242114829,126.615934051,false ,매주 화요일 정기휴무,https://www.instagram.com/seoyangchaguan/,,서양차관,제주 오션뷰와 함께하는 홍차전문 카페,매일 11:00 ~ 19:00,,,1,1
96,제주 서귀포시 성산읍 신천동로 130-29,false ,0507-1465-7906,33.352171270,126.864420245,false ,연중무휴,,,카페물썹,성산일출봉과 제주 사계절 풍경을 볼 수 있는 카페 ,매일 10:00 ~ 20:00,,,1,1
97,제주 제주시 조천읍 함덕16길 56 다니쉬,false ,0507-1333-1377,33.542128183,126.663683533,false ,매주 화~수 정기휴무,https://www.instagram.com/danish_jeju/,,다니쉬,브리오슈 식빵과 포카치아 등의 베이커리 맛집 카페,매일 11:30 ~ 19:00,,,1,1
98,제주 제주시 애월읍 중산간서로 6710-1 미깡창고,false ,0507-1408-1506,33.460208404,126.445319508,false ,연중무휴,https://www.instagram.com/jeju_mi_kkang/,,미깡창고,제주 정취를 제대로 느낄 수 있는 감성 카페,"매일 11:00 ~ 18:00 
(라스트오더 17:00)",,,1,1
99,충북 단양군 대강면 선암계곡로 165,false ,0507-1350-9090,36.828886526,128.309388208,false ,연중무휴,https://www.instagram.com/dawoory043/,,카페다우리,숲속 산성에서 즐기는 힐링 카페,매일 11:00 ~ 19:00 (노키즈존),,,1,11
100,경기 이천시 중리천로6번길 3-1,false ,,37.280157368,127.438654980,false ,,http://naver.me/GWFe905X,,오노브,채광이 잘들어오는 이천 예쁜카페,,,,1,2
